{
"type": "FeatureCollection",
"name": "Rest_Areas",
"crs": { "type": "name", "properties": { "name": "urn:ogc:def:crs:OGC:1.3:CRS84" } },
"features": [
{ "type": "Feature", "properties": { "OBJECTID": 1, "CT_NO": "90100018", "NAME": "Collier Tunnel Safety Roadside Rest Area - Nb & Sb", "ADDRESS": "19 Mi N Of Gasquet And 3 Mi S Of Oregon State Line.", "CITY": "Gasquet", "ZIPCODE": "95543", "POSTMILE_P": " ", "POSTMILE": 33.3, "POSTMILE_S": " ", "LATITUDE": 41.968489, "LONGITUDE": -123.74778, "DISTRICT": "1", "CO_CODE": "DN", "COUNTY": "Del Norte", "ROUTE": "199", "REST_AREA": "Collier Tunnel", "LOCATION": "3 mi. S. of Oregon State Line", "TRAFFICDIR": "N & S", "RESTROOM": "Yes", "WATER": "Yes", "PICNICTAB": "Yes", "PHONE": "Yes", "HANDICAP": "Yes", "RV_STATION": "No", "VENDING": "No", "PET_AREA": "Yes" }, "geometry": { "type": "Point", "coordinates": [ -123.747793990379833, 41.968494144520243 ] } },
{ "type": "Feature", "properties": { "OBJECTID": 2, "CT_NO": "90100029", "NAME": "Empire Camp Safety Roadside Rest Area - Nb", "ADDRESS": "13.5 Miles North Of Laytonville.", "CITY": "Laytonville", "ZIPCODE": "95454", "POSTMILE_P": " ", "POSTMILE": 82.5, "POSTMILE_S": " ", "LATITUDE": 39.826746, "LONGITUDE": -123.594724, "DISTRICT": "1", "CO_CODE": "MEN", "COUNTY": "Mendocino", "ROUTE": "101", "REST_AREA": "Empire Camp", "LOCATION": "2.5 mi. S. of Cummings", "TRAFFICDIR": "N", "RESTROOM": "Yes", "WATER": "Yes", "PICNICTAB": "Yes", "PHONE": "Yes", "HANDICAP": "Yes", "RV_STATION": "No", "VENDING": "No", "PET_AREA": "Yes" }, "geometry": { "type": "Point", "coordinates": [ -123.594737647069365, 39.826751011147785 ] } },
{ "type": "Feature", "properties": { "OBJECTID": 3, "CT_NO": "90100054", "NAME": "Irvine Lodge Safety Roadside Rest Area - Nb", "ADDRESS": "3 Miles North Of Sr 162 Jct.", "CITY": "Laytonville", "ZIPCODE": "95454", "POSTMILE_P": " ", "POSTMILE": 61.82, "POSTMILE_S": " ", "LATITUDE": 39.584265, "LONGITUDE": -123.444665, "DISTRICT": "1", "CO_CODE": "MEN", "COUNTY": "Mendocino", "ROUTE": "101", "REST_AREA": "Irvine Lodge", "LOCATION": "7.9 mi. S. of Laytonville", "TRAFFICDIR": "N", "RESTROOM": "Yes", "WATER": "Yes", "PICNICTAB": "Yes", "PHONE": "Yes", "HANDICAP": "Yes", "RV_STATION": "No", "VENDING": "No", "PET_AREA": "Yes" }, "geometry": { "type": "Point", "coordinates": [ -123.444678592891506, 39.584270006119283 ] } },
{ "type": "Feature", "properties": { "OBJECTID": 4, "CT_NO": "90100071", "NAME": "Moss Cove Safety Roadside Rest Area - Sb", "ADDRESS": " 0.5 Miles South Of Sr 162 Jct.", "CITY": "Laytonville", "ZIPCODE": "95454", "POSTMILE_P": " ", "POSTMILE": 58.9, "POSTMILE_S": " ", "LATITUDE": 39.55035, "LONGITUDE": -123.425301, "DISTRICT": "1", "CO_CODE": "MEN", "COUNTY": "Mendocino", "ROUTE": "101", "REST_AREA": "Moss Cove", "LOCATION": "10.5 mi. S. of Laytonville", "TRAFFICDIR": "S", "RESTROOM": "Yes", "WATER": "Yes", "PICNICTAB": "Yes", "PHONE": "Yes", "HANDICAP": "Yes", "RV_STATION": "No", "VENDING": "No", "PET_AREA": "Yes" }, "geometry": { "type": "Point", "coordinates": [ -123.42531458588212, 39.550355005371166 ] } },
{ "type": "Feature", "properties": { "OBJECTID": 5, "CT_NO": "90100085", "NAME": "Francis B. Mathews Safety Roadside Rest Area - Eb & Wb", "ADDRESS": "2.5 Mi E Of Salyer And 7.5 Mi W Of Burnt Ranch.", "CITY": "Lewiston", "ZIPCODE": "96052", "POSTMILE_P": " ", "POSTMILE": 3.6, "POSTMILE_S": " ", "LATITUDE": 40.882761, "LONGITUDE": -123.547142, "DISTRICT": "2", "CO_CODE": "TRI", "COUNTY": "Trinity", "ROUTE": "299", "REST_AREA": "Francis B.Mathews", "LOCATION": "3 mi. E. of Salyer", "TRAFFICDIR": "E & W", "RESTROOM": "Yes", "WATER": "Yes", "PICNICTAB": "Yes", "PHONE": "No", "HANDICAP": "Yes", "RV_STATION": "Yes", "VENDING": "No", "PET_AREA": "Yes" }, "geometry": { "type": "Point", "coordinates": [ -123.547155791796257, 40.882766089093252 ] } },
{ "type": "Feature", "properties": { "OBJECTID": 6, "CT_NO": "90100095", "NAME": "Trinidad Safety Roadside Rest Area - Nb", "ADDRESS": "4.5 Miles North Of Exit 728.", "CITY": "Trinidad", "ZIPCODE": "95570", "POSTMILE_P": " ", "POSTMILE": 105.14, "POSTMILE_S": " ", "LATITUDE": 41.123781, "LONGITUDE": -124.150148, "DISTRICT": "1", "CO_CODE": "HUM", "COUNTY": "Humboldt", "ROUTE": "101", "REST_AREA": "Trinidad", "LOCATION": "0.9 mi. S. Patricks Pt. U.C.", "TRAFFICDIR": "N", "RESTROOM": "Yes", "WATER": "Yes", "PICNICTAB": "Yes", "PHONE": "Yes", "HANDICAP": "Yes", "RV_STATION": "Yes", "VENDING": "No", "PET_AREA": "Yes" }, "geometry": { "type": "Point", "coordinates": [ -124.150161916075604, 41.123786053369322 ] } },
{ "type": "Feature", "properties": { "OBJECTID": 7, "CT_NO": "90100096", "NAME": "Trinidad Safety Roadside Rest Area - Sb", "ADDRESS": "0.5 Miles South Of Exit 731.", "CITY": "Trinidad", "ZIPCODE": "95570", "POSTMILE_P": " ", "POSTMILE": 102.9, "POSTMILE_S": " ", "LATITUDE": 41.091567, "LONGITUDE": -124.150696, "DISTRICT": "1", "CO_CODE": "HUM", "COUNTY": "Humboldt", "ROUTE": "101", "REST_AREA": "Trinidad", "LOCATION": "3.1 mi. S. of Patricks Pt. U.C.", "TRAFFICDIR": "S", "RESTROOM": "Yes", "WATER": "Yes", "PICNICTAB": "Yes", "PHONE": "Yes", "HANDICAP": "Yes", "RV_STATION": "No", "VENDING": "No", "PET_AREA": "Yes" }, "geometry": { "type": "Point", "coordinates": [ -124.150709909958493, 41.09157205153258 ] } },
{ "type": "Feature", "properties": { "OBJECTID": 8, "CT_NO": "90200041", "NAME": "Lt. John C. Helmick Safety Roadside Rest Area - Nb", "ADDRESS": "2 Mi N Of Exit 631, Near Corning.\n", "CITY": "Corning", "ZIPCODE": "96021", "POSTMILE_P": " ", "POSTMILE": 10.5, "POSTMILE_S": " ", "LATITUDE": 39.945951, "LONGITUDE": -122.198846, "DISTRICT": "2", "CO_CODE": "TEH", "COUNTY": "Tehama", "ROUTE": "5", "REST_AREA": "LT John C. Helmick", "LOCATION": "1.3 mi. N. of Corning Road", "TRAFFICDIR": "N", "RESTROOM": "Yes", "WATER": "Yes", "PICNICTAB": "Yes", "PHONE": "Yes", "HANDICAP": "Yes", "RV_STATION": "No", "VENDING": "No", "PET_AREA": "Yes" }, "geometry": { "type": "Point", "coordinates": [ -122.198859457251146, 39.945956134646309 ] } },
{ "type": "Feature", "properties": { "OBJECTID": 9, "CT_NO": "90200072", "NAME": "Grass Lake Safety Roadside Rest Area - Nb & Sb", "ADDRESS": "20 Miles North Of I-80 & 18 Miles South Of Macdoel.", "CITY": "Weed", "ZIPCODE": "96094", "POSTMILE_P": " ", "POSTMILE": 21.8, "POSTMILE_S": " ", "LATITUDE": 41.642701, "LONGITUDE": -122.16713, "DISTRICT": "2", "CO_CODE": "SIS", "COUNTY": "Siskiyou", "ROUTE": "97", "REST_AREA": "Grass Lake", "LOCATION": "19.8 mi. N. of Weed", "TRAFFICDIR": "N & S", "RESTROOM": "Yes", "WATER": "Yes", "PICNICTAB": "Yes", "PHONE": "Yes", "HANDICAP": "Yes", "RV_STATION": "No", "VENDING": "No", "PET_AREA": "Yes" }, "geometry": { "type": "Point", "coordinates": [ -122.167143701323411, 41.642706262911467 ] } },
{ "type": "Feature", "properties": { "OBJECTID": 10, "CT_NO": "90200086", "NAME": "Herbert S. Miles Safety Roadside Rest Area - Nb", "ADDRESS": "3 Miles North Of Exit 653, Near Red Bluff.", "CITY": "Red Bluff", "ZIPCODE": "96080", "POSTMILE_P": " ", "POSTMILE": 33.2, "POSTMILE_S": " ", "LATITUDE": 40.251545, "LONGITUDE": -122.260721, "DISTRICT": "2", "CO_CODE": "TEH", "COUNTY": "Tehama", "ROUTE": "5", "REST_AREA": "Herbert S. Miles", "LOCATION": "4.4 mi. N. of Red Bluff", "TRAFFICDIR": "N", "RESTROOM": "Yes", "WATER": "Yes", "PICNICTAB": "Yes", "PHONE": "Yes", "HANDICAP": "Yes", "RV_STATION": "No", "VENDING": "No", "PET_AREA": "Yes" }, "geometry": { "type": "Point", "coordinates": [ -122.260734509417816, 40.251550152328534 ] } },
{ "type": "Feature", "properties": { "OBJECTID": 11, "CT_NO": "90200088", "NAME": "Hillcrest Safety Roadside Rest Area - Eb & Wb", "ADDRESS": "3 Miles East Of Montgomery Creek & 14 Miles West Of Burney", "CITY": "Montgomery Creek", "ZIPCODE": "96055", "POSTMILE_P": " ", "POSTMILE": 60.6, "POSTMILE_S": " ", "LATITUDE": 40.8642, "LONGITUDE": -121.896363, "DISTRICT": "2", "CO_CODE": "SHA", "COUNTY": "Shasta", "ROUTE": "299", "REST_AREA": "Hillcrest", "LOCATION": "3.9 mi. E. of Montgomery Creek", "TRAFFICDIR": "E & W", "RESTROOM": "Yes", "WATER": "Yes", "PICNICTAB": "Yes", "PHONE": "No", "HANDICAP": "Yes", "RV_STATION": "No", "VENDING": "No", "PET_AREA": "Yes" }, "geometry": { "type": "Point", "coordinates": [ -121.896376541096515, 40.86420522977523 ] } },
{ "type": "Feature", "properties": { "OBJECTID": 12, "CT_NO": "90200091", "NAME": "Honey Lake Safety Roadside Rest Area - Nb & Sb", "ADDRESS": "7.7 Miles North Of Milford &  6 Miles South Of Janesville.", "CITY": "Janesville", "ZIPCODE": "96114", "POSTMILE_P": " ", "POSTMILE": 49.6, "POSTMILE_S": " ", "LATITUDE": 40.256258, "LONGITUDE": -120.465164, "DISTRICT": "2", "CO_CODE": "LAS", "COUNTY": "Lassen", "ROUTE": "395", "REST_AREA": "Honey Lake", "LOCATION": "7.7 mi. N. of Milford", "TRAFFICDIR": "N & S", "RESTROOM": "Yes", "WATER": "Yes", "PICNICTAB": "Yes", "PHONE": "Yes", "HANDICAP": "Yes", "RV_STATION": "No", "VENDING": "No", "PET_AREA": "Yes" }, "geometry": { "type": "Point", "coordinates": [ -120.465177228517305, 40.256263299728396 ] } },
{ "type": "Feature", "properties": { "OBJECTID": 13, "CT_NO": "90200104", "NAME": "L.T. Davis Safety Roadside Rest Area - Eb & Wb", "ADDRESS": "3 Miles East Of Portola & 2.5 Miles West Of Beckworth.", "CITY": "Loyalton", "ZIPCODE": "96114", "POSTMILE_P": " ", "POSTMILE": 79.2, "POSTMILE_S": " ", "LATITUDE": 39.823614, "LONGITUDE": -120.413408, "DISTRICT": "2", "CO_CODE": "PLU", "COUNTY": "Plumas", "ROUTE": "70", "REST_AREA": "L.T.Davis", "LOCATION": "3 mi. E. of Portola", "TRAFFICDIR": "E & W", "RESTROOM": "Yes", "WATER": "Yes", "PICNICTAB": "Yes", "PHONE": "Yes", "HANDICAP": "Yes", "RV_STATION": "No", "VENDING": "No", "PET_AREA": "Yes" }, "geometry": { "type": "Point", "coordinates": [ -120.413421161732003, 39.823619268267905 ] } },
{ "type": "Feature", "properties": { "OBJECTID": 14, "CT_NO": "90200106", "NAME": "Lake Almanor Safety Roadside Rest Area - Eb & Wb", "ADDRESS": "4.3 Miles East Of Chester & 8.7 Miles West Of Westwood.", "CITY": "Chester", "ZIPCODE": " ", "POSTMILE_P": " ", "POSTMILE": 12.8, "POSTMILE_S": " ", "LATITUDE": 40.30264, "LONGITUDE": -121.162525, "DISTRICT": "2", "CO_CODE": "PLU", "COUNTY": "Plumas", "ROUTE": "36", "REST_AREA": "Lake Almanor", "LOCATION": "4.3 mi. E. of Chester", "TRAFFICDIR": "E & W", "RESTROOM": "Yes", "WATER": "Yes", "PICNICTAB": "Yes", "PHONE": "No", "HANDICAP": "Yes", "RV_STATION": "No", "VENDING": "No", "PET_AREA": "Yes" }, "geometry": { "type": "Point", "coordinates": [ -121.162538346025116, 40.302645246465893 ] } },
{ "type": "Feature", "properties": { "OBJECTID": 15, "CT_NO": "90200107", "NAME": "Lakehead Safety Roadside Rest Area - Sb", "ADDRESS": "2 Miles South Of Exit 707.", "CITY": "Shasta Lake", "ZIPCODE": "96001", "POSTMILE_P": " ", "POSTMILE": 43.2, "POSTMILE_S": " ", "LATITUDE": 40.917456, "LONGITUDE": -122.397846, "DISTRICT": "2", "CO_CODE": "SHA", "COUNTY": "Shasta", "ROUTE": "5", "REST_AREA": "Lakehead", "LOCATION": "0.9 mi. N. of Lakehead O.C.", "TRAFFICDIR": "S", "RESTROOM": "Yes", "WATER": "Yes", "PICNICTAB": "Yes", "PHONE": "Yes", "HANDICAP": "Yes", "RV_STATION": "No", "VENDING": "Yes", "PET_AREA": "Yes" }, "geometry": { "type": "Point", "coordinates": [ -122.397859626423113, 40.917461190564168 ] } },
{ "type": "Feature", "properties": { "OBJECTID": 16, "CT_NO": "90200116", "NAME": "Massack Safety Roadside Rest Area - Eb & Wb", "ADDRESS": "6.5 Miles East Of Quincy & 7.5 Miles West Of Sloat.", "CITY": "Quincy", "ZIPCODE": "95971", "POSTMILE_P": " ", "POSTMILE": 49.8, "POSTMILE_S": " ", "LATITUDE": 39.923296, "LONGITUDE": -120.834006, "DISTRICT": "2", "CO_CODE": "PLU", "COUNTY": "Plumas", "ROUTE": "70", "REST_AREA": "Massack", "LOCATION": "6.5 mi. E. of Quincy", "TRAFFICDIR": "E & W", "RESTROOM": "Yes", "WATER": "Yes", "PICNICTAB": "Yes", "PHONE": "Yes", "HANDICAP": "Yes", "RV_STATION": "No", "VENDING": "No", "PET_AREA": "Yes" }, "geometry": { "type": "Point", "coordinates": [ -120.834019241783864, 39.923301243883337 ] } },
{ "type": "Feature", "properties": { "OBJECTID": 17, "CT_NO": "90200122", "NAME": "Moon Lim Lee Safety Roadside Rest Area - Eb & W B", "ADDRESS": "2 Miles East Of Junction City & 5 Miles West Of Weaverville,", "CITY": "Weaverville", "ZIPCODE": "96093", "POSTMILE_P": " ", "POSTMILE": 56.8, "POSTMILE_S": " ", "LATITUDE": 40.666377, "LONGITUDE": -122.943556, "DISTRICT": "2", "CO_CODE": "TRI", "COUNTY": "Trinity", "ROUTE": "299", "REST_AREA": "Moon Lim Lee", "LOCATION": "5 mi. E. of Weaverville", "TRAFFICDIR": "E", "RESTROOM": "Yes", "WATER": "Yes", "PICNICTAB": "Yes", "PHONE": "Yes", "HANDICAP": "Yes", "RV_STATION": "No", "VENDING": "No", "PET_AREA": "Yes" }, "geometry": { "type": "Point", "coordinates": [ -122.943569670253751, 40.666382125340832 ] } },
{ "type": "Feature", "properties": { "OBJECTID": 18, "CT_NO": "90200144", "NAME": "Randolph E. Collier Safety Roadside Rest Area - Nb & Sb", "ADDRESS": "Exit 786 (Sr I-5).", "CITY": "Hornbrook", "ZIPCODE": "96044", "POSTMILE_P": " ", "POSTMILE": 58.4, "POSTMILE_S": " ", "LATITUDE": 41.852376, "LONGITUDE": -122.572171, "DISTRICT": "2", "CO_CODE": "SIS", "COUNTY": "Siskiyou", "ROUTE": "5", "REST_AREA": "Randolph E. Collier", "LOCATION": "2.5 mi. N. of Rte. 96", "TRAFFICDIR": "N & S", "RESTROOM": "Yes", "WATER": "Yes", "PICNICTAB": "Yes", "PHONE": "Yes", "HANDICAP": "Yes", "RV_STATION": "No", "VENDING": "No", "PET_AREA": "Yes" }, "geometry": { "type": "Point", "coordinates": [ -122.572184796810745, 41.852381241056833 ] } },
{ "type": "Feature", "properties": { "OBJECTID": 19, "CT_NO": "90200154", "NAME": "Secret Valley Safety Roadside Rest Area - Nb & Sb", "ADDRESS": "23.5 Miles North Of Litchfield & 12 Miles South Of Ravendale.", "CITY": "Ravendale", "ZIPCODE": " ", "POSTMILE_P": " ", "POSTMILE": 96.5, "POSTMILE_S": " ", "LATITUDE": 40.646739, "LONGITUDE": -120.260728, "DISTRICT": "2", "CO_CODE": "LAS", "COUNTY": "Lassen", "ROUTE": "395", "REST_AREA": "Secret Valley", "LOCATION": "12 mi. S. of Ravendale", "TRAFFICDIR": "N & S", "RESTROOM": "Yes", "WATER": "Yes", "PICNICTAB": "Yes", "PHONE": "No", "HANDICAP": "Yes", "RV_STATION": "No", "VENDING": "No", "PET_AREA": "Yes" }, "geometry": { "type": "Point", "coordinates": [ -120.260741250254853, 40.646744349332494 ] } },
{ "type": "Feature", "properties": { "OBJECTID": 20, "CT_NO": "90200160", "NAME": "Shingletown Safety Roadside Rest Area - Eb & Wb", "ADDRESS": "3 Miles East Of Shingletown & 8 Miles West Of Viola.", "CITY": "Shingletown", "ZIPCODE": " ", "POSTMILE_P": " ", "POSTMILE": 34.9, "POSTMILE_S": " ", "LATITUDE": 40.506141, "LONGITUDE": -121.832567, "DISTRICT": "2", "CO_CODE": "SHA", "COUNTY": "Shasta", "ROUTE": "44", "REST_AREA": "Shingletown", "LOCATION": "3.1 mi. E. of Shingletown", "TRAFFICDIR": "E & W", "RESTROOM": "Yes", "WATER": "Yes", "PICNICTAB": "Yes", "PHONE": "No", "HANDICAP": "Yes", "RV_STATION": "No", "VENDING": "No", "PET_AREA": "Yes" }, "geometry": { "type": "Point", "coordinates": [ -121.832580479423996, 40.506146207366868 ] } },
{ "type": "Feature", "properties": { "OBJECTID": 21, "CT_NO": "90200199", "NAME": "Weed Airport Safety Roadside Rest Area - Nb", "ADDRESS": "At Exit 753, 6.0 Mi N Of Weed.", "CITY": "Weed", "ZIPCODE": "96094", "POSTMILE_P": " ", "POSTMILE": 25.8, "POSTMILE_S": " ", "LATITUDE": 41.477476, "LONGITUDE": -122.454763, "DISTRICT": "2", "CO_CODE": "SIS", "COUNTY": "Siskiyou", "ROUTE": "5", "REST_AREA": "Weed Airport", "LOCATION": "6 mi. N. of Weed", "TRAFFICDIR": "N", "RESTROOM": "Yes", "WATER": "Yes", "PICNICTAB": "Yes", "PHONE": "Yes", "HANDICAP": "Yes", "RV_STATION": "No", "VENDING": "No", "PET_AREA": "Yes" }, "geometry": { "type": "Point", "coordinates": [ -122.454776719331562, 41.477481226032687 ] } },
{ "type": "Feature", "properties": { "OBJECTID": 22, "CT_NO": "90300040", "NAME": "Donner Summit Safety Roadside Rest Area - Eb", "ADDRESS": "1 Mile East Of Exit 76 (Castle Peak).", "CITY": "Soda Springs", "ZIPCODE": "95728", "POSTMILE_P": " ", "POSTMILE": 5.52, "POSTMILE_S": " ", "LATITUDE": 39.34085, "LONGITUDE": -120.339833, "DISTRICT": "3", "CO_CODE": "NEV", "COUNTY": "Nevada", "ROUTE": "80", "REST_AREA": "Donner Summit", "LOCATION": "On Donner Pass", "TRAFFICDIR": "E", "RESTROOM": "Yes", "WATER": "Yes", "PICNICTAB": "Yes", "PHONE": "Yes", "HANDICAP": "Yes", "RV_STATION": "No", "VENDING": "No", "PET_AREA": "Yes" }, "geometry": { "type": "Point", "coordinates": [ -120.339846083894017, 39.340855233805193 ] } },
{ "type": "Feature", "properties": { "OBJECTID": 23, "CT_NO": "90300041", "NAME": "Donner Summit Safety Roadside Rest Area - Wb", "ADDRESS": "3 Miles West Of Donner Lake Exit.", "CITY": "Soda Springs", "ZIPCODE": "95728", "POSTMILE_P": " ", "POSTMILE": 5.84, "POSTMILE_S": " ", "LATITUDE": 39.342762, "LONGITUDE": -120.340289, "DISTRICT": "3", "CO_CODE": "NEV", "COUNTY": "Nevada", "ROUTE": "80", "REST_AREA": "Donner Summit", "LOCATION": "On Donner Pass", "TRAFFICDIR": "W", "RESTROOM": "Yes", "WATER": "Yes", "PICNICTAB": "Yes", "PHONE": "Yes", "HANDICAP": "Yes", "RV_STATION": "No", "VENDING": "No", "PET_AREA": "Yes" }, "geometry": { "type": "Point", "coordinates": [ -120.340302085800232, 39.34276723296793 ] } },
{ "type": "Feature", "properties": { "OBJECTID": 24, "CT_NO": "90300046", "NAME": "Dunnigan Safety Roadside Rest Area - Nb", "ADDRESS": "0.5 Miles North Of Exit 556.", "CITY": "Dunnigan", "ZIPCODE": "95937", "POSTMILE_P": " ", "POSTMILE": 26.17, "POSTMILE_S": " ", "LATITUDE": 38.892006, "LONGITUDE": -121.977148, "DISTRICT": "3", "CO_CODE": "YOL", "COUNTY": "Yolo", "ROUTE": "5", "REST_AREA": "Dunnigan", "LOCATION": "0.5 mi. N. of Dunnigan", "TRAFFICDIR": "N", "RESTROOM": "Yes", "WATER": "Yes", "PICNICTAB": "Yes", "PHONE": "Yes", "HANDICAP": "Yes", "RV_STATION": "No", "VENDING": "No", "PET_AREA": "Yes" }, "geometry": { "type": "Point", "coordinates": [ -121.977161284504092, 38.892011068629905 ] } },
{ "type": "Feature", "properties": { "OBJECTID": 25, "CT_NO": "90300047", "NAME": "Dunnigan Safety Roadside Rest Area - Sb", "ADDRESS": "2 Miles South Of Exit 559.", "CITY": "Dunnigan", "ZIPCODE": "95937", "POSTMILE_P": " ", "POSTMILE": 26.55, "POSTMILE_S": " ", "LATITUDE": 38.892187, "LONGITUDE": -121.979637, "DISTRICT": "3", "CO_CODE": "YOL", "COUNTY": "Yolo", "ROUTE": "5", "REST_AREA": "Dunnigan", "LOCATION": "0.5 mi. N. of Dunnigan", "TRAFFICDIR": "S", "RESTROOM": "Yes", "WATER": "Yes", "PICNICTAB": "Yes", "PHONE": "Yes", "HANDICAP": "Yes", "RV_STATION": "No", "VENDING": "No", "PET_AREA": "Yes" }, "geometry": { "type": "Point", "coordinates": [ -121.979650283492717, 38.892192068171632 ] } },
{ "type": "Feature", "properties": { "OBJECTID": 26, "CT_NO": "90300057", "NAME": "Elkhorn Safety Roadside Rest Area - Sb\nAka: Vietnam Memorial", "ADDRESS": "2 Miles South Of Exit 531.\nSw Of Sac Intl Airport", "CITY": "Sacramento", "ZIPCODE": "95815", "POSTMILE_P": " ", "POSTMILE": 33.8, "POSTMILE_S": " ", "LATITUDE": 38.671804, "LONGITUDE": -121.612123, "DISTRICT": "3", "CO_CODE": "SAC", "COUNTY": "Sacramento", "ROUTE": "5", "REST_AREA": "Elkhorn", "LOCATION": "6.1 miles south of Woodland", "TRAFFICDIR": "S", "RESTROOM": "Yes", "WATER": "Yes", "PICNICTAB": "Yes", "PHONE": "Yes", "HANDICAP": "Yes", "RV_STATION": "No", "VENDING": "No", "PET_AREA": "Yes" }, "geometry": { "type": "Point", "coordinates": [ -121.61213620030334, 38.671809078710055 ] } },
{ "type": "Feature", "properties": { "OBJECTID": 27, "CT_NO": "90300065", "NAME": "Gold Run Safety Roadside Rest Area - Eb", "ADDRESS": "0.5 Miles East Of Exit 143 (Magra Rd).", "CITY": "Dutch Flat", "ZIPCODE": "95714", "POSTMILE_P": " ", "POSTMILE": 41.7, "POSTMILE_S": " ", "LATITUDE": 39.18048, "LONGITUDE": -120.850197, "DISTRICT": "3", "CO_CODE": "PLA", "COUNTY": "Placer", "ROUTE": "80", "REST_AREA": "Gold Run", "LOCATION": "Between Sawmill and Gold Run O.C.", "TRAFFICDIR": "E", "RESTROOM": "Yes", "WATER": "Yes", "PICNICTAB": "Yes", "PHONE": "Yes", "HANDICAP": "Yes", "RV_STATION": "No", "VENDING": "Yes", "PET_AREA": "Yes" }, "geometry": { "type": "Point", "coordinates": [ -120.850210145884816, 39.180485179931274 ] } },
{ "type": "Feature", "properties": { "OBJECTID": 28, "CT_NO": "90300066", "NAME": "Gold Run Safety Roadside Rest Area - Wb", "ADDRESS": "0.5 Miles West Of Exit 144 (Gold Run).", "CITY": "Dutch Flat", "ZIPCODE": "95714", "POSTMILE_P": " ", "POSTMILE": 41.8, "POSTMILE_S": " ", "LATITUDE": 39.179258, "LONGITUDE": -120.854962, "DISTRICT": "3", "CO_CODE": "PLA", "COUNTY": "Placer", "ROUTE": "80", "REST_AREA": "Gold Run", "LOCATION": "Between Sawmill and Gold Run O.C.", "TRAFFICDIR": "W", "RESTROOM": "Yes", "WATER": "Yes", "PICNICTAB": "Yes", "PHONE": "Yes", "HANDICAP": "Yes", "RV_STATION": "No", "VENDING": "Yes", "PET_AREA": "Yes" }, "geometry": { "type": "Point", "coordinates": [ -120.854975146121689, 39.179263180003225 ] } },
{ "type": "Feature", "properties": { "OBJECTID": 29, "CT_NO": "90300087", "NAME": "Maxwell Safety Roadside Rest Area - Nb", "ADDRESS": "2.0 Mi S Of Maxwell", "CITY": "Maxwell", "ZIPCODE": "95955", "POSTMILE_P": " ", "POSTMILE": 24.1, "POSTMILE_S": " ", "LATITUDE": 39.240776, "LONGITUDE": -122.180229, "DISTRICT": "3", "CO_CODE": "COL", "COUNTY": "Colusa", "ROUTE": "5", "REST_AREA": "Maxwell", "LOCATION": "2 mi. S. of Maxwell", "TRAFFICDIR": "N", "RESTROOM": "Yes", "WATER": "Yes", "PICNICTAB": "Yes", "PHONE": "Yes", "HANDICAP": "Yes", "RV_STATION": "No", "VENDING": "No", "PET_AREA": "Yes" }, "geometry": { "type": "Point", "coordinates": [ -122.180242358976329, 39.240781080595752 ] } },
{ "type": "Feature", "properties": { "OBJECTID": 30, "CT_NO": "90300088", "NAME": "Maxwell Safety Roadside Rest Area - Sb", "ADDRESS": "2.0 Mi S Of Maxwell", "CITY": "Maxwell", "ZIPCODE": "95955", "POSTMILE_P": " ", "POSTMILE": 24.5, "POSTMILE_S": " ", "LATITUDE": 39.241692, "LONGITUDE": -122.183621, "DISTRICT": "3", "CO_CODE": "COL", "COUNTY": "Colusa", "ROUTE": "5", "REST_AREA": "Maxwell", "LOCATION": "2 mi. S. of Maxwell", "TRAFFICDIR": "S", "RESTROOM": "Yes", "WATER": "Yes", "PICNICTAB": "Yes", "PHONE": "Yes", "HANDICAP": "Yes", "RV_STATION": "No", "VENDING": "No", "PET_AREA": "Yes" }, "geometry": { "type": "Point", "coordinates": [ -122.18363436065826, 39.241697080583343 ] } },
{ "type": "Feature", "properties": { "OBJECTID": 31, "CT_NO": "90300155", "NAME": "Willows Safety Roadside Rest Area - Nb", "ADDRESS": "4.6 Mi N Of Willows", "CITY": "Willows", "ZIPCODE": "95988", "POSTMILE_P": " ", "POSTMILE": 14.4, "POSTMILE_S": " ", "LATITUDE": 39.592289, "LONGITUDE": -122.208366, "DISTRICT": "3", "CO_CODE": "GLE", "COUNTY": "Glenn", "ROUTE": "5", "REST_AREA": "Willows", "LOCATION": "2 mi. S. of Artois", "TRAFFICDIR": "N", "RESTROOM": "Yes", "WATER": "Yes", "PICNICTAB": "Yes", "PHONE": "Yes", "HANDICAP": "Yes", "RV_STATION": "Yes", "VENDING": "No", "PET_AREA": "Yes" }, "geometry": { "type": "Point", "coordinates": [ -122.20837941006846, 39.592294105436508 ] } },
{ "type": "Feature", "properties": { "OBJECTID": 32, "CT_NO": "90300156", "NAME": "Willows Safety Roadside Rest Area - Sb", "ADDRESS": "4.6 Mi N Of Willows", "CITY": "Willows", "ZIPCODE": "95988", "POSTMILE_P": " ", "POSTMILE": 14.7, "POSTMILE_S": " ", "LATITUDE": 39.592747, "LONGITUDE": -122.21034, "DISTRICT": "3", "CO_CODE": "GLE", "COUNTY": "Glenn", "ROUTE": "5", "REST_AREA": "Willows", "LOCATION": "2 mi. S. of Artois", "TRAFFICDIR": "S", "RESTROOM": "Yes", "WATER": "Yes", "PICNICTAB": "Yes", "PHONE": "Yes", "HANDICAP": "Yes", "RV_STATION": "Yes", "VENDING": "No", "PET_AREA": "Yes" }, "geometry": { "type": "Point", "coordinates": [ -122.210353410294601, 39.592752105683772 ] } },
{ "type": "Feature", "properties": { "OBJECTID": 33, "CT_NO": "90400035", "NAME": "Crystal Springs Safety Roadside Rest Area - Nb", "ADDRESS": "1 Mile North Of Bunker Hill Drive.", "CITY": "Burlingame", "ZIPCODE": "94010", "POSTMILE_P": " ", "POSTMILE": 13.1, "POSTMILE_S": " ", "LATITUDE": 37.539225, "LONGITUDE": -122.364264, "DISTRICT": "4", "CO_CODE": "SM", "COUNTY": "San Mateo", "ROUTE": "280", "REST_AREA": "Crystal Springs", "LOCATION": "Near San Francisco Reservoir", "TRAFFICDIR": "N", "RESTROOM": "Yes", "WATER": "Yes", "PICNICTAB": "Yes", "PHONE": "Yes", "HANDICAP": "Yes", "RV_STATION": "No", "VENDING": "Yes", "PET_AREA": "Yes" }, "geometry": { "type": "Point", "coordinates": [ -122.364277180318126, 37.539229929167007 ] } },
{ "type": "Feature", "properties": { "OBJECTID": 34, "CT_NO": "90400065", "NAME": "H. Dana Bowers Safety Roadside Rest Area & Vista Point - Nb", "ADDRESS": "Vista Point Exit At North End Of Golden Gate Bridge.", "CITY": "Sausalito", "ZIPCODE": "94965", "POSTMILE_P": " ", "POSTMILE": 0.1, "POSTMILE_S": " ", "LATITUDE": 37.832802, "LONGITUDE": -122.480286, "DISTRICT": "4", "CO_CODE": "MRN", "COUNTY": "Marin", "ROUTE": "101", "REST_AREA": "H. Dana Bower", "LOCATION": "North end of Golden Gate Bridge", "TRAFFICDIR": "N", "RESTROOM": "Yes", "WATER": "Yes", "PICNICTAB": "Yes", "PHONE": "Yes", "HANDICAP": "Yes", "RV_STATION": "No", "VENDING": "No", "PET_AREA": "Yes" }, "geometry": { "type": "Point", "coordinates": [ -122.480299230975774, 37.832806944278502 ] } },
{ "type": "Feature", "properties": { "OBJECTID": 35, "CT_NO": "91000027", "NAME": "Hunter Hill Safety Roadside Rest Area - Wb", "ADDRESS": "2 Miles West Of Exit 36 (American Canyon Rd) Near Vallejo.", "CITY": "Vallejo", "ZIPCODE": "94590", "POSTMILE_P": " ", "POSTMILE": 6.56, "POSTMILE_S": " ", "LATITUDE": 38.151271, "LONGITUDE": -122.217489, "DISTRICT": "4", "CO_CODE": "SOL", "COUNTY": "Solano", "ROUTE": "80", "REST_AREA": "Hunter Hill", "LOCATION": "7 mi. E. of Vallejo", "TRAFFICDIR": "W", "RESTROOM": "Yes", "WATER": "Yes", "PICNICTAB": "Yes", "PHONE": "Yes", "HANDICAP": "Yes", "RV_STATION": "No", "VENDING": "Yes", "PET_AREA": "Yes" }, "geometry": { "type": "Point", "coordinates": [ -122.217502229376763, 38.151275989345031 ] } },
{ "type": "Feature", "properties": { "OBJECTID": 36, "CT_NO": "90500011", "NAME": "Camp Roberts Safety Roadside Rest Area - Nb", "ADDRESS": "8.5 N. Of San Miguel", "CITY": "Bradley", "ZIPCODE": "93426", "POSTMILE_P": " ", "POSTMILE": 3.1, "POSTMILE_S": " ", "LATITUDE": 35.831281, "LONGITUDE": -120.758122, "DISTRICT": "5", "CO_CODE": "MON", "COUNTY": "Monterey", "ROUTE": "101", "REST_AREA": "Camp Roberts", "LOCATION": "8.5 mi. N. of San Miguel", "TRAFFICDIR": "N", "RESTROOM": "Yes", "WATER": "Yes", "PICNICTAB": "Yes", "PHONE": "Yes", "HANDICAP": "Yes", "RV_STATION": "No", "VENDING": "Yes", "PET_AREA": "Yes" }, "geometry": { "type": "Point", "coordinates": [ -120.758134754352227, 35.831285885480391 ] } },
{ "type": "Feature", "properties": { "OBJECTID": 37, "CT_NO": "90500012", "NAME": "Camp Roberts Safety Roadside Rest Area - Sb", "ADDRESS": "8.5 N. Of San Miguel", "CITY": "Bradley", "ZIPCODE": "93426", "POSTMILE_P": " ", "POSTMILE": 5.1, "POSTMILE_S": " ", "LATITUDE": 35.850207, "LONGITUDE": -120.769708, "DISTRICT": "5", "CO_CODE": "MON", "COUNTY": "Monterey", "ROUTE": "101", "REST_AREA": "Camp Roberts", "LOCATION": "8.5 mi. N. of San Miguel", "TRAFFICDIR": "S", "RESTROOM": "Yes", "WATER": "Yes", "PICNICTAB": "Yes", "PHONE": "Yes", "HANDICAP": "Yes", "RV_STATION": "No", "VENDING": "Yes", "PET_AREA": "Yes" }, "geometry": { "type": "Point", "coordinates": [ -120.769720757762826, 35.850211887077421 ] } },
{ "type": "Feature", "properties": { "OBJECTID": 38, "CT_NO": "90500017", "NAME": "Gaviota Safety Roadside Rest Area - Nb", "ADDRESS": "S End Of Gaviota Tunnel", "CITY": "Goleta", "ZIPCODE": "93117", "POSTMILE_P": " ", "POSTMILE": 46.9, "POSTMILE_S": " ", "LATITUDE": 34.484991, "LONGITUDE": -120.228708, "DISTRICT": "5", "CO_CODE": "SB", "COUNTY": "Santa Barbara", "ROUTE": "101", "REST_AREA": "Gaviota", "LOCATION": "At S. end of Gaviota Tunnel", "TRAFFICDIR": "N", "RESTROOM": "Yes", "WATER": "Yes", "PICNICTAB": "Yes", "PHONE": "Yes", "HANDICAP": "Yes", "RV_STATION": "No", "VENDING": "No", "PET_AREA": "Yes" }, "geometry": { "type": "Point", "coordinates": [ -120.228720546830857, 34.484995788066279 ] } },
{ "type": "Feature", "properties": { "OBJECTID": 39, "CT_NO": "90500018", "NAME": "Gaviota Safety Roadside Rest Area - Sb", "ADDRESS": "S End Of Gaviota Tunnel", "CITY": "Goleta", "ZIPCODE": "93117", "POSTMILE_P": " ", "POSTMILE": 46.3, "POSTMILE_S": " ", "LATITUDE": 34.48386, "LONGITUDE": -120.230758, "DISTRICT": "5", "CO_CODE": "SB", "COUNTY": "Santa Barbara", "ROUTE": "101", "REST_AREA": "Gaviota", "LOCATION": "At S. end of Gaviota Tunnel", "TRAFFICDIR": "S", "RESTROOM": "Yes", "WATER": "Yes", "PICNICTAB": "Yes", "PHONE": "Yes", "HANDICAP": "Yes", "RV_STATION": "No", "VENDING": "No", "PET_AREA": "Yes" }, "geometry": { "type": "Point", "coordinates": [ -120.230770547225006, 34.483864786513706 ] } },
{ "type": "Feature", "properties": { "OBJECTID": 40, "CT_NO": "90500047", "NAME": "Shandon Safety Roadside Rest Area - Eb & Wb", "ADDRESS": "0.9 Mi E Of Sr 41", "CITY": "Paso Robles", "ZIPCODE": "93446", "POSTMILE_P": " ", "POSTMILE": 49.6, "POSTMILE_S": " ", "LATITUDE": 35.675233, "LONGITUDE": -120.346701, "DISTRICT": "5", "CO_CODE": "SLO", "COUNTY": "San Luis Obispo", "ROUTE": "46", "REST_AREA": "Shandon", "LOCATION": "0.9 mi. E. of Route 41 (West)", "TRAFFICDIR": "E & W", "RESTROOM": "Yes", "WATER": "Yes", "PICNICTAB": "Yes", "PHONE": "No", "HANDICAP": "Yes", "RV_STATION": "No", "VENDING": "Yes", "PET_AREA": "Yes" }, "geometry": { "type": "Point", "coordinates": [ -120.346713674596714, 35.675237897416714 ] } },
{ "type": "Feature", "properties": { "OBJECTID": 41, "CT_NO": "90600018", "NAME": "Boron Safety Roadside Rest Area - Eb", "ADDRESS": "3.9 Mi W Of Boron", "CITY": "Boron", "ZIPCODE": "93516", "POSTMILE_P": "R", "POSTMILE": 139.0, "POSTMILE_S": " ", "LATITUDE": 35.005831, "LONGITUDE": -117.718591, "DISTRICT": "6", "CO_CODE": "KER", "COUNTY": "Kern", "ROUTE": "58", "REST_AREA": "Boron", "LOCATION": "3.9 mi. W. of Boron", "TRAFFICDIR": "W", "RESTROOM": "Yes", "WATER": "Yes", "PICNICTAB": "Yes", "PHONE": "Yes", "HANDICAP": "Yes", "RV_STATION": "No", "VENDING": "Yes", "PET_AREA": "Yes" }, "geometry": { "type": "Point", "coordinates": [ -117.718603179164262, 35.005835991628466 ] } },
{ "type": "Feature", "properties": { "OBJECTID": 42, "CT_NO": "90600019", "NAME": "Boron Safety Roadside Rest Area - Wb", "ADDRESS": "3.9 Mi W Of Boron", "CITY": "Boron", "ZIPCODE": "93516", "POSTMILE_P": "R", "POSTMILE": 139.0, "POSTMILE_S": " ", "LATITUDE": 35.00787, "LONGITUDE": -117.719259, "DISTRICT": "6", "CO_CODE": "KER", "COUNTY": "Kern", "ROUTE": "58", "REST_AREA": "Boron", "LOCATION": "3.9 mi. W. of Boron", "TRAFFICDIR": "W", "RESTROOM": "Yes", "WATER": "Yes", "PICNICTAB": "Yes", "PHONE": "Yes", "HANDICAP": "Yes", "RV_STATION": "No", "VENDING": "Yes", "PET_AREA": "Yes" }, "geometry": { "type": "Point", "coordinates": [ -117.719271179884259, 35.007874991817872 ] } },
{ "type": "Feature", "properties": { "OBJECTID": 43, "CT_NO": "90600020", "NAME": "Buttonwillow Safety Roadside Rest Area - Nb", "ADDRESS": "2 Mi N Of Sr 58 Int", "CITY": "Buttonwillow", "ZIPCODE": "93206", "POSTMILE_P": " ", "POSTMILE": 54.1, "POSTMILE_S": " ", "LATITUDE": 35.418685, "LONGITUDE": -119.421931, "DISTRICT": "6", "CO_CODE": "KER", "COUNTY": "Kern", "ROUTE": "5", "REST_AREA": "Buttonwillow", "LOCATION": "2 mi. N. of Rte. 58 Interchange", "TRAFFICDIR": "N", "RESTROOM": "Yes", "WATER": "Yes", "PICNICTAB": "Yes", "PHONE": "Yes", "HANDICAP": "Yes", "RV_STATION": "No", "VENDING": "Yes", "PET_AREA": "Yes" }, "geometry": { "type": "Point", "coordinates": [ -119.421943501229919, 35.418689931088224 ] } },
{ "type": "Feature", "properties": { "OBJECTID": 44, "CT_NO": "90600021", "NAME": "Buttonwillow Safety Roadside Rest Area - Sb", "ADDRESS": "2 Mi N Of Sr 58 Int", "CITY": "Buttonwillow", "ZIPCODE": "93206", "POSTMILE_P": " ", "POSTMILE": 54.1, "POSTMILE_S": " ", "LATITUDE": 35.417048, "LONGITUDE": -119.424525, "DISTRICT": "6", "CO_CODE": "KER", "COUNTY": "Kern", "ROUTE": "5", "REST_AREA": "Buttonwillow", "LOCATION": "2 mi. N. of Rte. 58 Interchange", "TRAFFICDIR": "S", "RESTROOM": "Yes", "WATER": "Yes", "PICNICTAB": "Yes", "PHONE": "Yes", "HANDICAP": "Yes", "RV_STATION": "No", "VENDING": "Yes", "PET_AREA": "Yes" }, "geometry": { "type": "Point", "coordinates": [ -119.424537501597158, 35.417052929787786 ] } },
{ "type": "Feature", "properties": { "OBJECTID": 45, "CT_NO": "90600025", "NAME": "Coalinga - Avenal Safety Roadside Rest Area - Nb", "ADDRESS": "1.2 Mi N Of S Lassen Ave", "CITY": "Avenal", "ZIPCODE": "93204", "POSTMILE_P": " ", "POSTMILE": 1.3, "POSTMILE_S": " ", "LATITUDE": 36.089676, "LONGITUDE": -120.113156, "DISTRICT": "6", "CO_CODE": "FRE", "COUNTY": "Fresno", "ROUTE": "5", "REST_AREA": "Coalinga - Avenal", "LOCATION": "1.2 mi. N. of Lassen Ave.", "TRAFFICDIR": "N", "RESTROOM": "Yes", "WATER": "Yes", "PICNICTAB": "Yes", "PHONE": "Yes", "HANDICAP": "Yes", "RV_STATION": "No", "VENDING": "Yes", "PET_AREA": "Yes" }, "geometry": { "type": "Point", "coordinates": [ -120.113168677087899, 36.089680952455232 ] } },
{ "type": "Feature", "properties": { "OBJECTID": 46, "CT_NO": "90600026", "NAME": "Coalinga - Avenal Safety Roadside Rest Area - Sb", "ADDRESS": "1.2 Mi N Of S Lassen Ave", "CITY": "Avenal", "ZIPCODE": "93204", "POSTMILE_P": " ", "POSTMILE": 1.4, "POSTMILE_S": " ", "LATITUDE": 36.089546, "LONGITUDE": -120.116582, "DISTRICT": "6", "CO_CODE": "FRE", "COUNTY": "Fresno", "ROUTE": "5", "REST_AREA": "Coalinga - Avenal", "LOCATION": "1.2 mi. N. of Lassen Avenue", "TRAFFICDIR": "S", "RESTROOM": "Yes", "WATER": "Yes", "PICNICTAB": "Yes", "PHONE": "Yes", "HANDICAP": "Yes", "RV_STATION": "No", "VENDING": "Yes", "PET_AREA": "Yes" }, "geometry": { "type": "Point", "coordinates": [ -120.116594678206667, 36.089550951525375 ] } },
{ "type": "Feature", "properties": { "OBJECTID": 47, "CT_NO": "90600067", "NAME": "Tejon Pass Safety Roadside Rest Area - Nb", "ADDRESS": "3.5 Mi N Of Gorman", "CITY": "Lebec", "ZIPCODE": "93243", "POSTMILE_P": " ", "POSTMILE": 0.25, "POSTMILE_S": " ", "LATITUDE": 34.825693, "LONGITUDE": -118.870017, "DISTRICT": "6", "CO_CODE": "KER", "COUNTY": "Kern", "ROUTE": "5", "REST_AREA": "Tejon Pass", "LOCATION": "3.5 mi. N. of Gorman", "TRAFFICDIR": "N", "RESTROOM": "Yes", "WATER": "Yes", "PICNICTAB": "Yes", "PHONE": "Yes", "HANDICAP": "Yes", "RV_STATION": "Yes", "VENDING": "Yes", "PET_AREA": "Yes" }, "geometry": { "type": "Point", "coordinates": [ -118.87002935697555, 34.82569790302945 ] } },
{ "type": "Feature", "properties": { "OBJECTID": 48, "CT_NO": "90600068", "NAME": "Tejon Pass Safety Roadside Rest Area - Sb", "ADDRESS": "3.5 Mi N Of Gorman", "CITY": "Lebec", "ZIPCODE": "93243", "POSTMILE_P": " ", "POSTMILE": 0.25, "POSTMILE_S": " ", "LATITUDE": 34.828573, "LONGITUDE": -118.872298, "DISTRICT": "6", "CO_CODE": "KER", "COUNTY": "Kern", "ROUTE": "5", "REST_AREA": "Tejon Pass", "LOCATION": "3.5 mi. N. of Gorman", "TRAFFICDIR": "S", "RESTROOM": "Yes", "WATER": "Yes", "PICNICTAB": "Yes", "PHONE": "Yes", "HANDICAP": "Yes", "RV_STATION": "Yes", "VENDING": "Yes", "PET_AREA": "Yes" }, "geometry": { "type": "Point", "coordinates": [ -118.872310358246665, 34.828577902962046 ] } },
{ "type": "Feature", "properties": { "OBJECTID": 49, "CT_NO": "90600069", "NAME": "Philip S. Raine Safety Roadside Rest Area - Nb", "ADDRESS": "2.5 Mi N Of Tipton", "CITY": "Tulare", "ZIPCODE": "93274", "POSTMILE_P": " ", "POSTMILE": 22.3, "POSTMILE_S": " ", "LATITUDE": 36.107746, "LONGITUDE": -119.322326, "DISTRICT": "6", "CO_CODE": "TUL", "COUNTY": "Tulare", "ROUTE": "99", "REST_AREA": "Phillip S. Raine", "LOCATION": "2.5 mi. N. of Tipton", "TRAFFICDIR": "N", "RESTROOM": "Yes", "WATER": "Yes", "PICNICTAB": "Yes", "PHONE": "Yes", "HANDICAP": "Yes", "RV_STATION": "Yes", "VENDING": "Yes", "PET_AREA": "Yes" }, "geometry": { "type": "Point", "coordinates": [ -119.322338552258401, 36.107751006391631 ] } },
{ "type": "Feature", "properties": { "OBJECTID": 50, "CT_NO": "90600070", "NAME": "Philip S. Raine Safety Roadside Rest Area - Sb", "ADDRESS": "2.5 Mi N Of Tipton", "CITY": "Tulare", "ZIPCODE": "93274", "POSTMILE_P": " ", "POSTMILE": 22.3, "POSTMILE_S": " ", "LATITUDE": 36.108396, "LONGITUDE": -119.324731, "DISTRICT": "6", "CO_CODE": "TUL", "COUNTY": "Tulare", "ROUTE": "99", "REST_AREA": "Phillip S. Raine", "LOCATION": "2.5 mi. N. of Tipton", "TRAFFICDIR": "S", "RESTROOM": "Yes", "WATER": "Yes", "PICNICTAB": "Yes", "PHONE": "Yes", "HANDICAP": "Yes", "RV_STATION": "Yes", "VENDING": "Yes", "PET_AREA": "Yes" }, "geometry": { "type": "Point", "coordinates": [ -119.324743551581449, 36.10840100713019 ] } },
{ "type": "Feature", "properties": { "OBJECTID": 51, "CT_NO": "90800044", "NAME": "Brookside Safety Roadside Rest Area - Wb", "ADDRESS": "3 Mi W Of Beaumont", "CITY": "Banning", "ZIPCODE": "92220", "POSTMILE_P": " ", "POSTMILE": 4.2, "POSTMILE_S": " ", "LATITUDE": 33.958154, "LONGITUDE": -117.019332, "DISTRICT": "8", "CO_CODE": "RIV", "COUNTY": "Riverside", "ROUTE": "10", "REST_AREA": "Brookside", "LOCATION": "3 mi. W. of Beaumont", "TRAFFICDIR": "W", "RESTROOM": "Yes", "WATER": "Yes", "PICNICTAB": "Yes", "PHONE": "Yes", "HANDICAP": "Yes", "RV_STATION": "No", "VENDING": "No", "PET_AREA": "Yes" }, "geometry": { "type": "Point", "coordinates": [ -117.019343969970123, 33.958158914096217 ] } },
{ "type": "Feature", "properties": { "OBJECTID": 52, "CT_NO": "90800046", "NAME": "Cactus City Safety Roadside Rest Area - Eb", "ADDRESS": "15 Mi E Of Indio", "CITY": " ", "ZIPCODE": " ", "POSTMILE_P": " ", "POSTMILE": 72.0, "POSTMILE_S": " ", "LATITUDE": 33.677789, "LONGITUDE": -115.965336, "DISTRICT": "8", "CO_CODE": "RIV", "COUNTY": "Riverside", "ROUTE": "10", "REST_AREA": "Cactus City", "LOCATION": "15 mi. E. of Indio", "TRAFFICDIR": "W", "RESTROOM": "Yes", "WATER": "Yes", "PICNICTAB": "Yes", "PHONE": "No", "HANDICAP": "Yes", "RV_STATION": "No", "VENDING": "No", "PET_AREA": "Yes" }, "geometry": { "type": "Point", "coordinates": [ -115.965347762622287, 33.677793938454975 ] } },
{ "type": "Feature", "properties": { "OBJECTID": 53, "CT_NO": "90800047", "NAME": "Cactus City Safety Roadside Rest Area - Wb", "ADDRESS": "15 Mi E Of Indio", "CITY": " ", "ZIPCODE": " ", "POSTMILE_P": " ", "POSTMILE": 72.0, "POSTMILE_S": " ", "LATITUDE": 33.678742, "LONGITUDE": -115.962331, "DISTRICT": "8", "CO_CODE": "RIV", "COUNTY": "Riverside", "ROUTE": "10", "REST_AREA": "Cactus City", "LOCATION": "15 mi. E. of Indio", "TRAFFICDIR": "W", "RESTROOM": "Yes", "WATER": "Yes", "PICNICTAB": "Yes", "PHONE": "No", "HANDICAP": "Yes", "RV_STATION": "No", "VENDING": "No", "PET_AREA": "Yes" }, "geometry": { "type": "Point", "coordinates": [ -115.962342762351312, 33.67874694009803 ] } },
{ "type": "Feature", "properties": { "OBJECTID": 54, "CT_NO": "90800056", "NAME": "Clyde V. Kane Safety Roadside Rest Area - Nb", "ADDRESS": "30 Mi E Of Barstow", "CITY": "Newberry Springs", "ZIPCODE": "92365", "POSTMILE_P": " ", "POSTMILE": 107.4, "POSTMILE_S": " ", "LATITUDE": 35.031498, "LONGITUDE": -116.470163, "DISTRICT": "8", "CO_CODE": "SBD", "COUNTY": "San Bernardino", "ROUTE": "15", "REST_AREA": "Clyde V. Kane", "LOCATION": "30 mi. E. of Barstow", "TRAFFICDIR": "N", "RESTROOM": "Yes", "WATER": "Yes", "PICNICTAB": "Yes", "PHONE": "Yes", "HANDICAP": "Yes", "RV_STATION": "No", "VENDING": "No", "PET_AREA": "Yes" }, "geometry": { "type": "Point", "coordinates": [ -116.4701749649346, 35.031503070137283 ] } },
{ "type": "Feature", "properties": { "OBJECTID": 55, "CT_NO": "90800057", "NAME": "Clyde V. Kane Safety Roadside Rest Area - Sb", "ADDRESS": "30 Mi E Of Barstow", "CITY": "Newberry Springs", "ZIPCODE": "92365", "POSTMILE_P": " ", "POSTMILE": 107.4, "POSTMILE_S": " ", "LATITUDE": 35.034632, "LONGITUDE": -116.470655, "DISTRICT": "8", "CO_CODE": "SBD", "COUNTY": "San Bernardino", "ROUTE": "15", "REST_AREA": "Clyde V. Kane", "LOCATION": "30 mi. E. of Barstow", "TRAFFICDIR": "S", "RESTROOM": "Yes", "WATER": "Yes", "PICNICTAB": "Yes", "PHONE": "Yes", "HANDICAP": "Yes", "RV_STATION": "No", "VENDING": "No", "PET_AREA": "Yes" }, "geometry": { "type": "Point", "coordinates": [ -116.470666966825817, 35.034637069787046 ] } },
{ "type": "Feature", "properties": { "OBJECTID": 56, "CT_NO": "90800065", "NAME": "Desert Oasis Safety Roadside Rest Area - Wb", "ADDRESS": "9 Mi E Of Newberry Springs", "CITY": "Newberry Springs", "ZIPCODE": "92365", "POSTMILE_P": "R", "POSTMILE": 29.3, "POSTMILE_S": " ", "LATITUDE": 34.801519, "LONGITUDE": -116.521216, "DISTRICT": "8", "CO_CODE": "SBD", "COUNTY": "San Bernardino", "ROUTE": "40", "REST_AREA": "Desert Oasis", "LOCATION": "9 mi. E. of Newberry", "TRAFFICDIR": "E", "RESTROOM": "Yes", "WATER": "Yes", "PICNICTAB": "Yes", "PHONE": "Yes", "HANDICAP": "Yes", "RV_STATION": "No", "VENDING": "No", "PET_AREA": "Yes" }, "geometry": { "type": "Point", "coordinates": [ -116.521227953584685, 34.801524039785932 ] } },
{ "type": "Feature", "properties": { "OBJECTID": 57, "CT_NO": "90800074", "NAME": "John Wilke Safety Roadside Rest Area - Eb", "ADDRESS": "45 Mi W Of Needles\nNear Goffs Rd", "CITY": "Baker", "ZIPCODE": "92309", "POSTMILE_P": " ", "POSTMILE": 105.5, "POSTMILE_S": " ", "LATITUDE": 34.80814, "LONGITUDE": -115.21907, "DISTRICT": "8", "CO_CODE": "SBD", "COUNTY": "San Bernardino", "ROUTE": "40", "REST_AREA": "John Wilkie", "LOCATION": "45 mi. W. of Needles", "TRAFFICDIR": "E", "RESTROOM": "Yes", "WATER": "Yes", "PICNICTAB": "Yes", "PHONE": "Yes", "HANDICAP": "Yes", "RV_STATION": "No", "VENDING": "No", "PET_AREA": "Yes" }, "geometry": { "type": "Point", "coordinates": [ -115.219081721446528, 34.808145117809275 ] } },
{ "type": "Feature", "properties": { "OBJECTID": 58, "CT_NO": "90800075", "NAME": "John Wilke Safety Roadside Rest Area - Wb", "ADDRESS": "45 Mi W Of Needles\nNear Goffs Rd", "CITY": "Baker", "ZIPCODE": "92309", "POSTMILE_P": " ", "POSTMILE": 105.5, "POSTMILE_S": " ", "LATITUDE": 34.810515, "LONGITUDE": -115.219522, "DISTRICT": "8", "CO_CODE": "SBD", "COUNTY": "San Bernardino", "ROUTE": "40", "REST_AREA": "John Wilkie", "LOCATION": "45 mi. W. of Needles", "TRAFFICDIR": "W", "RESTROOM": "Yes", "WATER": "Yes", "PICNICTAB": "Yes", "PHONE": "Yes", "HANDICAP": "Yes", "RV_STATION": "No", "VENDING": "No", "PET_AREA": "Yes" }, "geometry": { "type": "Point", "coordinates": [ -115.219533721358133, 34.810520117922366 ] } },
{ "type": "Feature", "properties": { "OBJECTID": 59, "CT_NO": "90800119", "NAME": "Valley Wells Safety Roadside Rest Area - Eb", "ADDRESS": "26 Mi W Of Nevada State Line\nNear Cima Rd", "CITY": "Nipton", "ZIPCODE": "92364", "POSTMILE_P": " ", "POSTMILE": 161.15, "POSTMILE_S": " ", "LATITUDE": 35.433558, "LONGITUDE": -115.699327, "DISTRICT": "8", "CO_CODE": "SBD", "COUNTY": "San Bernardino", "ROUTE": "15", "REST_AREA": "Valley Wells", "LOCATION": "26 mi. W. of Nevada State Line", "TRAFFICDIR": "N", "RESTROOM": "Yes", "WATER": "Yes", "PICNICTAB": "Yes", "PHONE": "Yes", "HANDICAP": "Yes", "RV_STATION": "No", "VENDING": "Yes", "PET_AREA": "Yes" }, "geometry": { "type": "Point", "coordinates": [ -115.69933886526762, 35.433563163713188 ] } },
{ "type": "Feature", "properties": { "OBJECTID": 60, "CT_NO": "90800120", "NAME": "Valley Wells Safety Roadside Rest Area - Wb\n", "ADDRESS": "26 Mi W Of Nevada State Line\nNear Cima Rd", "CITY": "Nipton", "ZIPCODE": "92364", "POSTMILE_P": " ", "POSTMILE": 161.15, "POSTMILE_S": " ", "LATITUDE": 35.435863, "LONGITUDE": -115.701505, "DISTRICT": "8", "CO_CODE": "SBD", "COUNTY": "San Bernardino", "ROUTE": "15", "REST_AREA": "Valley Wells", "LOCATION": "26 mi. W. of Nevada State Line", "TRAFFICDIR": "S", "RESTROOM": "Yes", "WATER": "Yes", "PICNICTAB": "Yes", "PHONE": "Yes", "HANDICAP": "Yes", "RV_STATION": "No", "VENDING": "Yes", "PET_AREA": "Yes" }, "geometry": { "type": "Point", "coordinates": [ -115.70151686480996, 35.435868162930369 ] } },
{ "type": "Feature", "properties": { "OBJECTID": 61, "CT_NO": "90800127", "NAME": "Whitewater Safety Roadside Rest Area - Eb", "ADDRESS": "1 Mi W Of Whitewater O/C", "CITY": "Palm Springs", "ZIPCODE": "92262", "POSTMILE_P": " ", "POSTMILE": 26.18, "POSTMILE_S": " ", "LATITUDE": 33.9215, "LONGITUDE": -116.663874, "DISTRICT": "8", "CO_CODE": "RIV", "COUNTY": "Riverside", "ROUTE": "10", "REST_AREA": "Whitewater", "LOCATION": "1 mi. W. of Whitewater O.C.", "TRAFFICDIR": "E", "RESTROOM": "Yes", "WATER": "Yes", "PICNICTAB": "Yes", "PHONE": "Yes", "HANDICAP": "Yes", "RV_STATION": "No", "VENDING": "No", "PET_AREA": "Yes" }, "geometry": { "type": "Point", "coordinates": [ -116.663885905815974, 33.921504929929888 ] } },
{ "type": "Feature", "properties": { "OBJECTID": 62, "CT_NO": "90800128", "NAME": "Whitewater Safety Roadside Rest Area - Wb", "ADDRESS": "1 Mi W Of Whitewater O/C", "CITY": "Palm Springs", "ZIPCODE": "92262", "POSTMILE_P": " ", "POSTMILE": 26.18, "POSTMILE_S": " ", "LATITUDE": 33.923125, "LONGITUDE": -116.664085, "DISTRICT": "8", "CO_CODE": "RIV", "COUNTY": "Riverside", "ROUTE": "10", "REST_AREA": "Whitewater", "LOCATION": "1 mi. W. of Whitewater O.C.", "TRAFFICDIR": "W", "RESTROOM": "Yes", "WATER": "Yes", "PICNICTAB": "Yes", "PHONE": "Yes", "HANDICAP": "Yes", "RV_STATION": "No", "VENDING": "No", "PET_AREA": "Yes" }, "geometry": { "type": "Point", "coordinates": [ -116.664096905703175, 33.92312992965978 ] } },
{ "type": "Feature", "properties": { "OBJECTID": 63, "CT_NO": "90800129", "NAME": "Wildwood Safety Roadside Rest Area - Eb", "ADDRESS": "E Of Ave F I/C\n1 Mi W Of Calimesa", "CITY": "Beaumont", "ZIPCODE": "92223", "POSTMILE_P": " ", "POSTMILE": 38.16, "POSTMILE_S": " ", "LATITUDE": 34.012076, "LONGITUDE": -117.076855, "DISTRICT": "8", "CO_CODE": "SBD", "COUNTY": "San Bernardino", "ROUTE": "10", "REST_AREA": "Wildwood", "LOCATION": "1 mi. W. of Calimesa", "TRAFFICDIR": "E", "RESTROOM": "Yes", "WATER": "Yes", "PICNICTAB": "Yes", "PHONE": "Yes", "HANDICAP": "Yes", "RV_STATION": "No", "VENDING": "No", "PET_AREA": "Yes" }, "geometry": { "type": "Point", "coordinates": [ -117.076866984622527, 34.01208091773745 ] } },
{ "type": "Feature", "properties": { "OBJECTID": 64, "CT_NO": "90800130", "NAME": "Wiley'S Well Safety Roadside Rest Area - Eb & Wb", "ADDRESS": "15 Mi W Of Blythe", "CITY": "Blythe", "ZIPCODE": "92225", "POSTMILE_P": " ", "POSTMILE": 135.0, "POSTMILE_S": " ", "LATITUDE": 33.610422, "LONGITUDE": -114.90073, "DISTRICT": "8", "CO_CODE": "RIV", "COUNTY": "Riverside", "ROUTE": "10", "REST_AREA": "Wiley's Well", "LOCATION": "15 mi. W. of Blythe", "TRAFFICDIR": "E & W", "RESTROOM": "Yes", "WATER": "Yes", "PICNICTAB": "Yes", "PHONE": "Yes", "HANDICAP": "Yes", "RV_STATION": "No", "VENDING": "No", "PET_AREA": "Yes" }, "geometry": { "type": "Point", "coordinates": [ -114.900741566030163, 33.610426988382478 ] } },
{ "type": "Feature", "properties": { "OBJECTID": 65, "CT_NO": "90900017", "NAME": "Coso Jct Safety Roadside Rest Area Nb & Sb", "ADDRESS": "17 Mi S Of Sr 395/190 Jct\n(East Side)", "CITY": "Olancha", "ZIPCODE": "93545", "POSTMILE_P": " ", "POSTMILE": 17.7, "POSTMILE_S": " ", "LATITUDE": 36.044802, "LONGITUDE": -117.946306, "DISTRICT": "9", "CO_CODE": "INY", "COUNTY": "Inyo", "ROUTE": "395", "REST_AREA": "Coso Junction", "LOCATION": "17 mi. S. of Jct. Rte. 395/190", "TRAFFICDIR": "N & S", "RESTROOM": "Yes", "WATER": "Yes", "PICNICTAB": "Yes", "PHONE": "Yes", "HANDICAP": "Yes", "RV_STATION": "No", "VENDING": "No", "PET_AREA": "Yes" }, "geometry": { "type": "Point", "coordinates": [ -117.946318315295031, 36.04480709041637 ] } },
{ "type": "Feature", "properties": { "OBJECTID": 66, "CT_NO": "90900020", "NAME": "Crestview Safety Roadside Rest Area Nb & Sb", "ADDRESS": "6.4 Mi N Of Sr 203/395 Jct\n(West Side)", "CITY": "June Lake", "ZIPCODE": "93529", "POSTMILE_P": " ", "POSTMILE": 32.2, "POSTMILE_S": " ", "LATITUDE": 37.731133, "LONGITUDE": -118.969253, "DISTRICT": "9", "CO_CODE": "MNO", "COUNTY": " Mono", "ROUTE": "395", "REST_AREA": "Crestview", "LOCATION": "6.4 mi. N. of Jct. 203", "TRAFFICDIR": "N & S", "RESTROOM": "Yes", "WATER": "Yes", "PICNICTAB": "Yes", "PHONE": "Yes", "HANDICAP": "Yes", "RV_STATION": "No", "VENDING": "No", "PET_AREA": "Yes" }, "geometry": { "type": "Point", "coordinates": [ -118.969265665202244, 37.731138189537553 ] } },
{ "type": "Feature", "properties": { "OBJECTID": 67, "CT_NO": "90900023", "NAME": "Division Creek Safety Roadside Rest Area Nb & Sb", "ADDRESS": "10 Mi N. Of Independence\n(East Side)", "CITY": "Independence", "ZIPCODE": "93526", "POSTMILE_P": "R", "POSTMILE": 83.9, "POSTMILE_S": " ", "LATITUDE": 36.945682, "LONGITUDE": -118.238902, "DISTRICT": "9", "CO_CODE": "INY", "COUNTY": "Inyo", "ROUTE": "395", "REST_AREA": "Division Creek", "LOCATION": "10 mi. N. of Independence", "TRAFFICDIR": "N & S", "RESTROOM": "Yes", "WATER": "Yes", "PICNICTAB": "Yes", "PHONE": "Yes", "HANDICAP": "Yes", "RV_STATION": "No", "VENDING": "No", "PET_AREA": "Yes" }, "geometry": { "type": "Point", "coordinates": [ -118.238914456975991, 36.945687162493599 ] } },
{ "type": "Feature", "properties": { "OBJECTID": 68, "CT_NO": "91000030", "NAME": "John \" Chuck\" Erreca Safety Roadside Rest Area - Nb", "ADDRESS": "0.7 Mi N Of Fresno - Merced Co Line", "CITY": "Firebaugh", "ZIPCODE": "93622", "POSTMILE_P": " ", "POSTMILE": 0.7, "POSTMILE_S": " ", "LATITUDE": 36.864613, "LONGITUDE": -120.782247, "DISTRICT": "10", "CO_CODE": "MER", "COUNTY": "Merced", "ROUTE": "5", "REST_AREA": "John \"Chuck\" Erreca", "LOCATION": "0.7 mi. N. of Fresno Co. Line", "TRAFFICDIR": "N", "RESTROOM": "Yes", "WATER": "Yes", "PICNICTAB": "Yes", "PHONE": "Yes", "HANDICAP": "Yes", "RV_STATION": "No", "VENDING": "Yes", "PET_AREA": "Yes" }, "geometry": { "type": "Point", "coordinates": [ -120.782259862910124, 36.864617980591404 ] } },
{ "type": "Feature", "properties": { "OBJECTID": 69, "CT_NO": "91000031", "NAME": "John \" Chuck\" Erreca Safety Roadside Rest Area  - Sb", "ADDRESS": "0.7 Mi N Of Fresno Co Line", "CITY": "Firebaugh", "ZIPCODE": "93622", "POSTMILE_P": " ", "POSTMILE": 0.7, "POSTMILE_S": " ", "LATITUDE": 36.862435, "LONGITUDE": -120.783805, "DISTRICT": "10", "CO_CODE": "MER", "COUNTY": "Merced", "ROUTE": "5", "REST_AREA": "John \"Chuck\" Erreca", "LOCATION": "0.7 mi. N. of Fresno Co. Line", "TRAFFICDIR": "S", "RESTROOM": "Yes", "WATER": "Yes", "PICNICTAB": "Yes", "PHONE": "Yes", "HANDICAP": "Yes", "RV_STATION": "No", "VENDING": "Yes", "PET_AREA": "Yes" }, "geometry": { "type": "Point", "coordinates": [ -120.783817863209663, 36.862439980967352 ] } },
{ "type": "Feature", "properties": { "OBJECTID": 70, "CT_NO": "91000078", "NAME": "Enoch Christoffersen Safety Roadside Rest Area - Nb", "ADDRESS": "2.3 Mi S Of Turlock", "CITY": "Turlock", "ZIPCODE": "95380", "POSTMILE_P": " ", "POSTMILE": 0.5, "POSTMILE_S": " ", "LATITUDE": 37.466292, "LONGITUDE": -120.826622, "DISTRICT": "10", "CO_CODE": "STA", "COUNTY": "Stanislaus", "ROUTE": "99", "REST_AREA": "Enoch Christoffersen", "LOCATION": "2.3 mi.S. of Turlock", "TRAFFICDIR": "N", "RESTROOM": "Yes", "WATER": "Yes", "PICNICTAB": "Yes", "PHONE": "Yes", "HANDICAP": "Yes", "RV_STATION": "No", "VENDING": "Yes", "PET_AREA": "Yes" }, "geometry": { "type": "Point", "coordinates": [ -120.826634935638154, 37.466297031854779 ] } },
{ "type": "Feature", "properties": { "OBJECTID": 71, "CT_NO": "91000079", "NAME": "Enoch Christoffersen Safety Roadside Rest Area - Sb", "ADDRESS": "2.3 Mi S Of Turlock", "CITY": "Turlock", "ZIPCODE": "95380", "POSTMILE_P": " ", "POSTMILE": 0.5, "POSTMILE_S": " ", "LATITUDE": 37.464247, "LONGITUDE": -120.82756, "DISTRICT": "10", "CO_CODE": "STA", "COUNTY": "Stanislaus", "ROUTE": "99", "REST_AREA": "Enoch Christoffersen", "LOCATION": "2.3 mi.S. of Turlock", "TRAFFICDIR": "S", "RESTROOM": "Yes", "WATER": "Yes", "PICNICTAB": "Yes", "PHONE": "Yes", "HANDICAP": "Yes", "RV_STATION": "No", "VENDING": "Yes", "PET_AREA": "Yes" }, "geometry": { "type": "Point", "coordinates": [ -120.827572936694907, 37.464252032891963 ] } },
{ "type": "Feature", "properties": { "OBJECTID": 72, "CT_NO": "91000082", "NAME": "Westley Safety Roadside Rest Area - Nb", "ADDRESS": "0.9 Mi S Of San Joaquin - Stanislaus Co Line", "CITY": "Tracy", "ZIPCODE": "95376", "POSTMILE_P": " ", "POSTMILE": 27.2, "POSTMILE_S": " ", "LATITUDE": 37.583942, "LONGITUDE": -121.322368, "DISTRICT": "10", "CO_CODE": "STA", "COUNTY": "Stanislaus", "ROUTE": "5", "REST_AREA": "Westley", "LOCATION": "0.9 mi. S. of San Joaquin Co. Line", "TRAFFICDIR": "N", "RESTROOM": "Yes", "WATER": "Yes", "PICNICTAB": "Yes", "PHONE": "Yes", "HANDICAP": "Yes", "RV_STATION": "Yes", "VENDING": "Yes", "PET_AREA": "Yes" }, "geometry": { "type": "Point", "coordinates": [ -121.322381026522507, 37.583947007650458 ] } },
{ "type": "Feature", "properties": { "OBJECTID": 73, "CT_NO": "91000083", "NAME": "Westley Safety Roadside Rest Area - Sb", "ADDRESS": "0.9 Mi S Of San Joaquin - Stanislaus Co Line", "CITY": "Tracy", "ZIPCODE": "95376", "POSTMILE_P": " ", "POSTMILE": 27.2, "POSTMILE_S": " ", "LATITUDE": 37.581248, "LONGITUDE": -121.323597, "DISTRICT": "10", "CO_CODE": "STA", "COUNTY": "Stanislaus", "ROUTE": "5", "REST_AREA": "Westley", "LOCATION": "0.9 mi. S. of San Joaquin Co. Line", "TRAFFICDIR": "S", "RESTROOM": "Yes", "WATER": "Yes", "PICNICTAB": "Yes", "PHONE": "Yes", "HANDICAP": "Yes", "RV_STATION": "Yes", "VENDING": "Yes", "PET_AREA": "Yes" }, "geometry": { "type": "Point", "coordinates": [ -121.323610026934062, 37.581253007089266 ] } },
{ "type": "Feature", "properties": { "OBJECTID": 74, "CT_NO": "91100003", "NAME": "Aliso Creek Safety Roadside Rest Area - Nb", "ADDRESS": "5.8 Mi N. Of Oceanside", "CITY": "Oceanside", "ZIPCODE": "92054", "POSTMILE_P": " ", "POSTMILE": 0.0, "POSTMILE_S": " ", "LATITUDE": 33.268964, "LONGITUDE": -117.436137, "DISTRICT": "11", "CO_CODE": "SD", "COUNTY": "San Diego", "ROUTE": "5", "REST_AREA": "Aliso Creek", "LOCATION": "5.8 mi.N. of Oceanside", "TRAFFICDIR": "N", "RESTROOM": "Yes", "WATER": "Yes", "PICNICTAB": "Yes", "PHONE": "Yes", "HANDICAP": "Yes", "RV_STATION": "Yes", "VENDING": "Yes", "PET_AREA": "Yes" }, "geometry": { "type": "Point", "coordinates": [ -117.436148989193242, 33.268968811355343 ] } },
{ "type": "Feature", "properties": { "OBJECTID": 75, "CT_NO": "91100004", "NAME": "Aliso Creek Safety Roadside Rest Area - Sb", "ADDRESS": "5.8 Mi N. Of Oceanside", "CITY": "Oceanside", "ZIPCODE": "92054", "POSTMILE_P": " ", "POSTMILE": 0.0, "POSTMILE_S": " ", "LATITUDE": 33.272044, "LONGITUDE": -117.443741, "DISTRICT": "11", "CO_CODE": "SD", "COUNTY": "San Diego", "ROUTE": "5", "REST_AREA": "Aliso Creek", "LOCATION": "5.8 mi. N. of Oceanside", "TRAFFICDIR": "S", "RESTROOM": "Yes", "WATER": "Yes", "PICNICTAB": "Yes", "PHONE": "Yes", "HANDICAP": "Yes", "RV_STATION": "Yes", "VENDING": "Yes", "PET_AREA": "Yes" }, "geometry": { "type": "Point", "coordinates": [ -117.443752990019746, 33.272048810832757 ] } },
{ "type": "Feature", "properties": { "OBJECTID": 76, "CT_NO": "91100012", "NAME": "Buckman Springs Safety Roadside Rest Area\nEb & Wb", "ADDRESS": "3.3 Mi E. Of Pine Valley", "CITY": "Pine Valley", "ZIPCODE": "92062", "POSTMILE_P": " ", "POSTMILE": 0.0, "POSTMILE_S": " ", "LATITUDE": 32.758032, "LONGITUDE": -116.483892, "DISTRICT": "11", "CO_CODE": "SD", "COUNTY": "San Diego", "ROUTE": "8", "REST_AREA": "Buckman Springs", "LOCATION": "3.3 mi. E. of Pine Valley", "TRAFFICDIR": "E & W", "RESTROOM": "Yes", "WATER": "Yes", "PICNICTAB": "Yes", "PHONE": "Yes", "HANDICAP": "Yes", "RV_STATION": "Yes", "VENDING": "No", "PET_AREA": "Yes" }, "geometry": { "type": "Point", "coordinates": [ -116.483903786267788, 32.758036800625852 ] } },
{ "type": "Feature", "properties": { "OBJECTID": 77, "CT_NO": "91100067", "NAME": "Sand Hills Safety Roadside Rest Area - Eb & Wb", "ADDRESS": "20 Mi W Of The Arizona State Line", "CITY": " ", "ZIPCODE": " ", "POSTMILE_P": " ", "POSTMILE": 0.0, "POSTMILE_S": " ", "LATITUDE": 32.737417, "LONGITUDE": -114.890321, "DISTRICT": "11", "CO_CODE": "IMP", "COUNTY": "Imperial", "ROUTE": "8", "REST_AREA": "Sand Hills", "LOCATION": "20 mi. W. of Arizona State Line", "TRAFFICDIR": "E & W", "RESTROOM": "Yes", "WATER": "Yes", "PICNICTAB": "N", "PHONE": "N", "HANDICAP": "Yes", "RV_STATION": "No", "VENDING": "No", "PET_AREA": "N" }, "geometry": { "type": "Point", "coordinates": [ -114.890332499372164, 32.737421878924302 ] } },
{ "type": "Feature", "properties": { "OBJECTID": 78, "CT_NO": "91100074", "NAME": "Sunbeam Safety Roadside Rest Area - Eb", "ADDRESS": "6 Mi W Of El Centro", "CITY": "El Centro", "ZIPCODE": "92243", "POSTMILE_P": "R", "POSTMILE": 31.3, "POSTMILE_S": " ", "LATITUDE": 32.773373, "LONGITUDE": -115.669846, "DISTRICT": "11", "CO_CODE": "IMP", "COUNTY": "Imperial", "ROUTE": "8", "REST_AREA": "Sunbeam", "LOCATION": "6 mi. W. of El Centro", "TRAFFICDIR": "E", "RESTROOM": "Yes", "WATER": "Yes", "PICNICTAB": "Yes", "PHONE": "Yes", "HANDICAP": "Yes", "RV_STATION": "Yes", "VENDING": "Yes", "PET_AREA": "Yes" }, "geometry": { "type": "Point", "coordinates": [ -115.669857642558, 32.773377843173755 ] } },
{ "type": "Feature", "properties": { "OBJECTID": 79, "CT_NO": "91100075", "NAME": "Sunbeam Safety Roadside Rest Area - Wb", "ADDRESS": "6 Mi W Of El Centro", "CITY": "El Centro", "ZIPCODE": "92243", "POSTMILE_P": "R", "POSTMILE": 31.3, "POSTMILE_S": " ", "LATITUDE": 32.774653, "LONGITUDE": -115.669027, "DISTRICT": "11", "CO_CODE": "IMP", "COUNTY": "Imperial", "ROUTE": "8", "REST_AREA": "Sunbeam", "LOCATION": "6 mi. W. of El Centro", "TRAFFICDIR": "W", "RESTROOM": "Yes", "WATER": "Yes", "PICNICTAB": "Yes", "PHONE": "Yes", "HANDICAP": "Yes", "RV_STATION": "Yes", "VENDING": "No", "PET_AREA": "Yes" }, "geometry": { "type": "Point", "coordinates": [ -115.669038642225274, 32.774657844311051 ] } },
{ "type": "Feature", "properties": { "OBJECTID": 80, "CT_NO": "91100081", "NAME": "Two Rivers Safety Roadside Rest Area - Nb & Sb", "ADDRESS": "2.5 Mi S Of Calipatria", "CITY": "Calipatria", "ZIPCODE": "92233", "POSTMILE_P": " ", "POSTMILE": 0.0, "POSTMILE_S": " ", "LATITUDE": 33.082577, "LONGITUDE": -115.520974, "DISTRICT": "11", "CO_CODE": "IMP", "COUNTY": "Imperial", "ROUTE": "111", "REST_AREA": "Two Rivers", "LOCATION": "2.5 mi. S. of Calipatria", "TRAFFICDIR": "N & S", "RESTROOM": "Yes", "WATER": "Yes", "PICNICTAB": "Yes", "PHONE": "Yes", "HANDICAP": "Yes", "RV_STATION": "Yes", "VENDING": "No", "PET_AREA": "Yes" }, "geometry": { "type": "Point", "coordinates": [ -115.520985638366241, 33.082581889686985 ] } },
{ "type": "Feature", "properties": { "OBJECTID": 81, "CT_NO": "90600107", "NAME": "C. H. Warlow Safety Roadside Rest Area Nb & Sb", "ADDRESS": "@ Dodge Ave Near Kings River", "CITY": "Kingsburg", "ZIPCODE": "93631", "POSTMILE_P": " ", "POSTMILE": 51.8, "POSTMILE_S": " ", "LATITUDE": 36.492079, "LONGITUDE": -119.520707, "DISTRICT": "6", "CO_CODE": "TUL", "COUNTY": "Tulare", "ROUTE": "99", "REST_AREA": "C. H. Warlow", "LOCATION": "At Dodge Ave. Near Kings River", "TRAFFICDIR": "N & S", "RESTROOM": "Yes", "WATER": "Yes", "PICNICTAB": "Yes", "PHONE": "Yes", "HANDICAP": "Yes", "RV_STATION": "No", "VENDING": "Yes", "PET_AREA": "Yes" }, "geometry": { "type": "Point", "coordinates": [ -119.520719622299481, 36.492084031179495 ] } },
{ "type": "Feature", "properties": { "OBJECTID": 82, "CT_NO": "99900178", "NAME": "Herbert S. Miles Safety Roadside Rest Area - Sb", "ADDRESS": "1 Mile South Of Exit 657, Near Red Bluff.", "CITY": "Red Bluff", "ZIPCODE": "96080", "POSTMILE_P": " ", "POSTMILE": 34.7, "POSTMILE_S": " ", "LATITUDE": 40.270398, "LONGITUDE": -122.270326, "DISTRICT": "2", "CO_CODE": "TEH", "COUNTY": "Tehama", "ROUTE": "5", "REST_AREA": "Herbert S. Miles", "LOCATION": "4.4 mi. N. of Red Bluff", "TRAFFICDIR": "S", "RESTROOM": "Yes", "WATER": "Yes", "PICNICTAB": "Yes", "PHONE": "Yes", "HANDICAP": "Yes", "RV_STATION": "No", "VENDING": "No", "PET_AREA": "Yes" }, "geometry": { "type": "Point", "coordinates": [ -122.270339512929596, 40.270403152069143 ] } },
{ "type": "Feature", "properties": { "OBJECTID": 83, "CT_NO": "99900228", "NAME": "Lt. John C. Helmick Safety Roadside Rest Area - Sb", "ADDRESS": "At Exit 633.", "CITY": "Corning", "ZIPCODE": "96021", "POSTMILE_P": " ", "POSTMILE": 10.5, "POSTMILE_S": " ", "LATITUDE": 39.947969, "LONGITUDE": -122.201429, "DISTRICT": "2", "CO_CODE": "TEH", "COUNTY": "Tehama", "ROUTE": "5", "REST_AREA": "LT John C. Helmick", "LOCATION": "1.3 mi. N. of Corning Road", "TRAFFICDIR": "S", "RESTROOM": "Yes", "WATER": "Yes", "PICNICTAB": "Yes", "PHONE": "Yes", "HANDICAP": "Yes", "RV_STATION": "No", "VENDING": "No", "PET_AREA": "Yes" }, "geometry": { "type": "Point", "coordinates": [ -122.201442456849435, 39.947974134676031 ] } },
{ "type": "Feature", "properties": { "OBJECTID": 84, "CT_NO": "99900230", "NAME": "Weed Airport Safety Roadside Rest Area - Sb", "ADDRESS": "At Exit 753.", "CITY": "Weed", "ZIPCODE": "96094", "POSTMILE_P": " ", "POSTMILE": 25.8, "POSTMILE_S": " ", "LATITUDE": 41.477657, "LONGITUDE": -122.456847, "DISTRICT": "2", "CO_CODE": "SIS", "COUNTY": "Siskiyou", "ROUTE": "5", "REST_AREA": "Weed Airport", "LOCATION": "6. Mi. N. of Weed", "TRAFFICDIR": "S", "RESTROOM": "Yes", "WATER": "Yes", "PICNICTAB": "Yes", "PHONE": "Yes", "HANDICAP": "Yes", "RV_STATION": "No", "VENDING": "No", "PET_AREA": "Yes" }, "geometry": { "type": "Point", "coordinates": [ -122.456860720060874, 41.477662225693066 ] } },
{ "type": "Feature", "properties": { "OBJECTID": 85, "CT_NO": "99900235", "NAME": "Bogard Safety Roadside Rest Area - Eb & Wb", "ADDRESS": "31.5 Miles East Of Sr89 & 14.5 Miles West Of Sr36.", "CITY": "Susanville", "ZIPCODE": "96130", "POSTMILE_P": " ", "POSTMILE": 14.5, "POSTMILE_S": " ", "LATITUDE": 40.586743, "LONGITUDE": -121.09011, "DISTRICT": "2", "CO_CODE": "LAS", "COUNTY": "Lassen", "ROUTE": "44", "REST_AREA": "Bogard", "LOCATION": "28 mi. N.W. of Susanville", "TRAFFICDIR": "E & W", "RESTROOM": "Yes", "WATER": "Yes", "PICNICTAB": "Yes", "PHONE": "Yes", "HANDICAP": "Yes", "RV_STATION": "No", "VENDING": "No", "PET_AREA": "Yes" }, "geometry": { "type": "Point", "coordinates": [ -121.090123374104621, 40.586748275192662 ] } },
{ "type": "Feature", "properties": { "OBJECTID": 86, "CT_NO": "90200131", "NAME": "O'Brien Safety Roadside Rest Area - Nb", "ADDRESS": "2 Miles North Of Exit 692, Near Shasta Lake City", "CITY": "Shasta Lake", "ZIPCODE": "96001", "POSTMILE_P": "R", "POSTMILE": 31.1, "POSTMILE_S": " ", "LATITUDE": 40.793567, "LONGITUDE": -122.317521, "DISTRICT": "2", "CO_CODE": "SHA", "COUNTY": "Shasta", "ROUTE": "5", "REST_AREA": "O'Brien", "LOCATION": "15 mi. N. of Redding, Shasta County", "TRAFFICDIR": "N", "RESTROOM": "Yes", "WATER": "Yes", "PICNICTAB": "Yes", "PHONE": "Yes", "HANDICAP": "Yes", "RV_STATION": "No", "VENDING": "No", "PET_AREA": "Yes" }, "geometry": { "type": "Point", "coordinates": [ -122.31753459496386, 40.793572187451254 ] } },
{ "type": "Feature", "properties": { "OBJECTID": 87, "CT_NO": "99902875", "NAME": "Desert Oasis Safety Roadside Rest Area - Eb", "ADDRESS": "9 Mi E Of Newberry Springs", "CITY": "Newberry Springs", "ZIPCODE": "92365", "POSTMILE_P": "R", "POSTMILE": 29.11, "POSTMILE_S": " ", "LATITUDE": 34.800211, "LONGITUDE": -116.524864, "DISTRICT": "8", "CO_CODE": "SBD", "COUNTY": "San Bernardino", "ROUTE": "40", "REST_AREA": "Desert Oasis", "LOCATION": "9 mi. E. of Newberry", "TRAFFICDIR": "W", "RESTROOM": "Yes", "WATER": "Yes", "PICNICTAB": "Yes", "PHONE": "Yes", "HANDICAP": "Yes", "RV_STATION": "No", "VENDING": "No", "PET_AREA": "Yes" }, "geometry": { "type": "Point", "coordinates": [ -116.524875954461294, 34.800216039238911 ] } }
]
}
